ward_id,ward_name,population,area_km2,population_density,lat,lon
1,Vijay Nagar,45000,9.0,5000,22.7486,75.8889
2,New Palasia,35000,7.0,5000,22.7281,75.8681
3,Bhawarkua,40000,8.0,5000,22.7100,75.8500
4,Rau,25000,5.0,5000,22.6800,75.8200
5,Rajendra Nagar,28000,5.6,5000,22.7400,75.9000
