{"version": 0.6, "generator": "Overpass API 0.7.62.8 e802775f", "osm3s": {"timestamp_osm_base": "2025-11-25T07:25:45Z", "copyright": "The data included in this document is from www.openstreetmap.org. The data is made available under ODbL."}, "elements": [{"type": "node", "id": 4703147060, "lat": 22.7048167, "lon": 75.844087, "tags": {"addr:city": "indore", "addr:street": "mahunaka road", "amenity": "restaurant", "name": "babla chicken centre"}}, {"type": "node", "id": 6567768308, "lat": 22.7005352, "lon": 75.9260193}, {"type": "node", "id": 6567768309, "lat": 22.7005664, "lon": 75.9260774}, {"type": "node", "id": 6567768310, "lat": 22.7005421, "lon": 75.9260807}, {"type": "node", "id": 6567768311, "lat": 22.7005063, "lon": 75.9260232}, {"type": "node", "id": 6567768312, "lat": 22.7005016, "lon": 75.9259824}, {"type": "node", "id": 6567768313, "lat": 22.7005547, "lon": 75.9259753}, {"type": "node", "id": 6578339334, "lat": 22.6870206, "lon": 75.8723767}, {"type": "node", "id": 6578339335, "lat": 22.6868487, "lon": 75.8725004}, {"type": "node", "id": 6578339336, "lat": 22.6868702, "lon": 75.8725355}, {"type": "node", "id": 6578339337, "lat": 22.6870421, "lon": 75.8724118}, {"type": "node", "id": 6578339338, "lat": 22.686798, "lon": 75.8725875}, {"type": "node", "id": 6578339339, "lat": 22.687067, "lon": 75.8724524}, {"type": "node", "id": 6578339340, "lat": 22.6871148, "lon": 75.8725208}, {"type": "node", "id": 6578339341, "lat": 22.6869858, "lon": 75.8726136}, {"type": "node", "id": 6578339342, "lat": 22.6869719, "lon": 75.8725908}, {"type": "node", "id": 6578339343, "lat": 22.6871008, "lon": 75.872498}, {"type": "node", "id": 6578339344, "lat": 22.6869238, "lon": 75.8726253}, {"type": "node", "id": 6578339345, "lat": 22.6869169, "lon": 75.872614}, {"type": "node", "id": 6578339346, "lat": 22.6870938, "lon": 75.8724867}, {"type": "node", "id": 6578339347, "lat": 22.6871401, "lon": 75.8724534}, {"type": "node", "id": 6578339348, "lat": 22.6868456, "lon": 75.8726653}, {"type": "node", "id": 6578339349, "lat": 22.6868228, "lon": 75.8726281}, {"type": "node", "id": 6578339350, "lat": 22.6871173, "lon": 75.8724162}, {"type": "node", "id": 6591725696, "lat": 22.6909423, "lon": 75.863023}, {"type": "node", "id": 6591725698, "lat": 22.6910285, "lon": 75.8631464}, {"type": "node", "id": 6591725699, "lat": 22.6910211, "lon": 75.8630177}, {"type": "node", "id": 7097845232, "lat": 22.7004322, "lon": 75.8680274, "tags": {"addr:city": "Indore", "addr:housenumber": "Vishal Trinity", "addr:street": "Sapna Sangeeta Rd", "amenity": "restaurant", "brand": "Pizza Hut", "brand:wikidata": "Q191615", "brand:wikipedia": "en:Pizza Hut", "cuisine": "pizza", "name": "Pizza Hut"}}, {"type": "node", "id": 9458213777, "lat": 22.6636278, "lon": 75.8838454, "tags": {"amenity": "restaurant", "cuisine": "indian", "name": "Lord of Grill"}}, {"type": "node", "id": 9458213778, "lat": 22.6634724, "lon": 75.8834208, "tags": {"amenity": "restaurant", "cuisine": "indian", "name": "Apna Punjabi Dhaba"}}, {"type": "node", "id": 9458213779, "lat": 22.6582329, "lon": 75.8846445, "tags": {"amenity": "restaurant", "cuisine": "indian", "name": "Maratha Darbar"}}, {"type": "node", "id": 9465937277, "lat": 22.6781986, "lon": 75.8777271, "tags": {"amenity": "restaurant", "cuisine": "indian", "name": "Maayra Ka Dhaaba"}}, {"type": "node", "id": 9465937278, "lat": 22.6765013, "lon": 75.8782914, "tags": {"amenity": "restaurant", "cuisine": "indian", "name": "Ramesh South Indian"}}, {"type": "node", "id": 9465937290, "lat": 22.6729012, "lon": 75.880289, "tags": {"amenity": "restaurant", "name": "Panna Restaurant & Sweets"}}, {"type": "node", "id": 9465992275, "lat": 22.6727602, "lon": 75.8759284, "tags": {"amenity": "restaurant", "cuisine": "indian", "name": "D. K. Restaurant"}}, {"type": "node", "id": 9465992280, "lat": 22.6724461, "lon": 75.8754909, "tags": {"amenity": "restaurant", "cuisine": "indian", "name": "Kushwah Ji Tiffin Center"}}, {"type": "node", "id": 9515553157, "lat": 22.6702374, "lon": 75.881027, "tags": {"air_conditioning": "no", "amenity": "restaurant", "brewery": "no", "cuisine": "indian", "name": "Kesarlal"}}, {"type": "node", "id": 9515931009, "lat": 22.6995369, "lon": 75.8669063, "tags": {"amenity": "restaurant", "name": "Apna Sweets"}}, {"type": "node", "id": 9515931021, "lat": 22.6987248, "lon": 75.8641434, "tags": {"amenity": "restaurant", "cuisine": "indian", "name": "Pishori Dhaba"}}, {"type": "node", "id": 9544567790, "lat": 22.6729545, "lon": 75.8769241, "tags": {"amenity": "restaurant", "name": "Gurjar Restaurant"}}, {"type": "node", "id": 9544567791, "lat": 22.6729273, "lon": 75.8766558, "tags": {"amenity": "restaurant", "name": "Taste N Best"}}, {"type": "node", "id": 9544998919, "lat": 22.6789702, "lon": 75.8772349, "tags": {"amenity": "restaurant", "name": "Sapna Restaurant"}}, {"type": "node", "id": 10239634876, "lat": 22.6689821, "lon": 75.8815681, "tags": {"amenity": "restaurant", "cuisine": "pizza"}}, {"type": "node", "id": 10239634878, "lat": 22.6725136, "lon": 75.8803559, "tags": {"amenity": "restaurant", "cuisine": "indian", "name": "Satkar Pure Veg"}}, {"type": "node", "id": 10895503052, "lat": 22.6909498, "lon": 75.8631501}, {"type": "node", "id": 10895503053, "lat": 22.6898298, "lon": 75.8633859}, {"type": "node", "id": 10895503054, "lat": 22.6899016, "lon": 75.8634689}, {"type": "node", "id": 10895503055, "lat": 22.6898062, "lon": 75.8635582}, {"type": "node", "id": 10895503056, "lat": 22.6897415, "lon": 75.8634752}, {"type": "node", "id": 10895503057, "lat": 22.6900653, "lon": 75.8636562}, {"type": "node", "id": 10895503058, "lat": 22.6901633, "lon": 75.8637578}, {"type": "node", "id": 10895503059, "lat": 22.6900667, "lon": 75.8638701}, {"type": "node", "id": 10895503060, "lat": 22.6899575, "lon": 75.8637715}, {"type": "node", "id": 10895503061, "lat": 22.6900135, "lon": 75.8637093}, {"type": "node", "id": 10895503066, "lat": 22.6901939, "lon": 75.8642944, "tags": {"addr:city": "Indore", "addr:housenumber": "Vishnupuri Colony", "addr:postcode": "452014", "addr:street": "Old A. B. Road", "amenity": "restaurant", "diet:vegetarian": "yes", "name": "Just Paratha", "opening_hours": "24/7"}}, {"type": "node", "id": 10895503070, "lat": 22.6900442, "lon": 75.8635677, "tags": {"addr:city": "Indore", "addr:housenumber": "Vishnupuri Colony", "addr:postcode": "452014", "addr:street": "Old A. B. Road", "amenity": "restaurant", "name": "Radha sanchi parler", "opening_hours": "Mo-Su 09:00-21:00"}}, {"type": "node", "id": 12864364419, "lat": 22.6412741, "lon": 75.8941297, "tags": {"addr:city": "Indore", "addr:district": "Indore", "addr:postcode": "452020", "addr:street": "Indore Bypass Rd, near Flyover Tejaji Nagar, Tejaji Nagar, Mirjapur", "amenity": "restaurant", "capacity": "250", "contact:facebook": "https://www.facebook.com/satkarpurevegindore", "cuisine": "indian;north_indian;punjabi", "diet:vegetarian": "yes", "email": "satkarpurevegindore@gmail.com", "name": "Satkar Pure Veg Punjabi Dhaba", "opening_hours": "Mo-Su 11:00-23:00", "outdoor_seating": "yes", "payment:cash": "yes", "payment:credit_cards": "yes", "payment:debit_cards": "yes", "payment:gpay": "yes", "payment:upi": "yes", "phone": "+919479313713", "takeaway": "yes", "toilets": "yes", "website": "https://satkarpureveg.in"}}, {"type": "way", "id": 699405729, "nodes": [6567768308, 6567768311, 6567768312, 6567768313, 6567768309, 6567768310, 6567768308], "tags": {"amenity": "restaurant", "building": "yes"}}, {"type": "way", "id": 700508242, "nodes": [6578339339, 6578339350, 6578339347, 6578339346, 6578339343, 6578339340, 6578339341, 6578339342, 6578339344, 6578339345, 6578339348, 6578339349, 6578339338, 6578339336, 6578339335, 6578339334, 6578339337, 6578339339], "tags": {"amenity": "restaurant", "building": "yes"}}, {"type": "way", "id": 1172654813, "nodes": [6591725699, 6591725698, 10895503052, 6591725696, 6591725699], "tags": {"addr:city": "Indore", "addr:housenumber": "156,Vishnupuri colony", "addr:postcode": "452014", "addr:street": "Old A. B. Road", "amenity": "restaurant", "building": "yes", "diet:vegetarian": "yes", "layer": "1", "name": "Matargasti", "opening_hours": "24/7", "phone": "084549 22434"}}, {"type": "way", "id": 1172654814, "nodes": [10895503053, 10895503054, 10895503055, 10895503056, 10895503053], "tags": {"addr:city": "Indore", "addr:housenumber": "Shop number G-4,29,Shivom Apartment,Vishnupuri main,Vishnupuri Colony", "addr:postcode": "452001", "addr:street": "Old A. B. Road", "amenity": "restaurant", "building": "yes", "cuisine": "burger;pizza;cake;sandwich;dessert", "diet:vegetarian": "yes", "name": "Vairagi Chef \"Cakes and Street Food\"", "opening_hours": "Mo-Su 01:00-11:00 pm"}}, {"type": "way", "id": 1172654816, "nodes": [10895503057, 10895503058, 10895503059, 10895503060, 10895503061, 10895503057], "tags": {"addr:city": "Indore", "addr:housenumber": "Vishnupuri Colony", "addr:postcode": "452014", "addr:street": "Old A. B. Road", "amenity": "restaurant", "building": "yes", "cuisine": "cake;dessert;donut;pizza", "diet:vegan": "yes", "name": "Royal Bakery Stores", "opening_hours": "24/7"}}]}