{"version": 0.6, "generator": "Overpass API 0.7.62.8 e802775f", "osm3s": {"timestamp_osm_base": "2025-11-09T10:47:15Z", "copyright": "The data included in this document is from www.openstreetmap.org. The data is made available under ODbL."}, "elements": [{"type": "node", "id": 5952007385, "lat": 22.6798417, "lon": 75.8346339, "tags": {"addr:street": "Vaishali nagar", "amenity": "fuel", "name": "Sudarshan Nagar Petrol Pump", "opening_hours": "24/7"}}, {"type": "node", "id": 6318159388, "lat": 22.6966742, "lon": 75.8282214, "tags": {"addr:city": "Indore", "addr:place": "Gumasta Nagar", "addr:street": "Near Dhakoniya Parishar, Scheme no. 71", "amenity": "fuel", "facility:air_filling": "yes", "facility:mechanic": "yes", "fuel:diesel": "yes", "fuel:nitrogen_filling": "yes", "fuel:petrol": "yes", "name": "Kshama Petrol Pump", "name:hi": "\u0915\u094d\u0937\u092e\u093e \u092a\u0947\u091f\u094d\u0930\u094b\u0932 \u092a\u0902\u092a", "opening_hours": "Mo-Su 6:00-23:30", "operator:type": "Indian_oil", "personnel:count": "20", "source": "2C_Indore Field Survey 2019"}}, {"type": "node", "id": 6321086400, "lat": 22.6952979, "lon": 75.8296205, "tags": {"addr:city": "Indore", "addr:place": "Near Phooti Kothi Square", "addr:street": "Ranjeet Hanuman Road, Gumasta Nagar, Scheme 71,", "amenity": "fuel", "brand": "Hindustan Petroleum", "brand:wikidata": "Q1619375", "facility:air_filling": "yes", "fuel:cng": "yes", "fuel:diesel": "yes", "fuel:nitrogen_filling": "yes", "fuel:petrol": "yes", "name": "HP", "name:hi": "\u0905\u0932\u094d\u091f\u0930\u0928\u0947\u091f\u093f\u0935 \u092b\u094d\u092f\u0942\u0932 \u0938\u094d\u091f\u0947\u0936\u0928", "official_name": "Hindustan Petroleum", "opening_hours": "Mo-Su 6:15-23:30", "operator:type": "HP", "personnel:count": "20", "phone": "9826077758", "source": "2C_Indore Field Survey 2019"}}, {"type": "node", "id": 6379360513, "lat": 22.7067326, "lon": 75.8222696, "tags": {"addr:city": "Indore", "addr:place": "Dhar Road", "addr:street": "Geeta Nagar", "amenity": "fuel", "fuel:diesel": "yes", "fuel:petrol": "yes", "name": "Raja Agnihotri Petrol Pump", "name:hi": "\u0930\u093e\u091c\u093e \u0905\u0917\u094d\u0928\u093f\u0939\u094b\u0924\u094d\u0930\u0940 \u092a\u0947\u091f\u094d\u0930\u094b\u0932\u092a\u0902\u092a", "opening_hours": "24/7", "operator:type": "Bharat_petrolium", "personnel:count": "12", "source": "2C_Indore Field Survey 2019"}}, {"type": "node", "id": 6379360525, "lat": 22.7034888, "lon": 75.8098483, "tags": {"addr:city": "Indore", "addr:place": "Dhar Road", "addr:street": "Noorani Nagar", "amenity": "fuel", "brand": "Indian Oil Petrol Pump", "brand:wikidata": "Q1289348", "brand:wikipedia": "en:Indian Oil Corporation", "fuel:diesel": "yes", "fuel:petrol": "yes", "name": "Indian Oil Petrol Pump", "name:hi": "\u091c\u092f\u092e\u093e\u0932 \u0938\u093f\u0902\u0939 \u092a\u0947\u091f\u094d\u0930\u094b\u0932\u092a\u0902\u092a", "opening_hours": "24/7", "operator:type": "Indian_oil", "personnel:count": "10", "source": "2C_Indore Field Survey 2019"}}, {"type": "node", "id": 6379360526, "lat": 22.7001384, "lon": 75.7980841, "tags": {"addr:city": "Indore", "addr:place": "Dhar Road", "addr:street": "Ahmad Nagar", "amenity": "fuel", "brand": "Indian Oil Petrol Pump", "brand:wikidata": "Q1289348", "brand:wikipedia": "en:Indian Oil Corporation", "facility:air_filling": "yes", "facility:mechanic": "yes", "fuel:diesel": "yes", "fuel:nitrogen_filling": "yes", "fuel:petrol": "yes", "name": "Indian Oil Petrol Pump", "name:hi": "\u090f\u0938 \u0936\u0936\u093f\u0915\u093e\u0902\u0924 \u090f\u0902\u0921 \u092c\u094d\u0930\u0926\u0930\u094d\u0938", "opening_hours": "24/7", "operator:type": "HP", "personnel:count": "12", "phone": "9406800053", "source": "2C_Indore Field Survey 2019"}}, {"type": "node", "id": 6379360527, "lat": 22.6981069, "lon": 75.7931355, "tags": {"addr:city": "Indore", "addr:place": "Dhar Road", "addr:street": "Jawahar Tekri", "amenity": "fuel", "fuel:diesel": "yes", "fuel:petrol": "yes", "name": "Harun Pump", "name:hi": "\u0939\u093e\u0930\u0942\u0928 \u092a\u0902\u092a", "opening_hours": "24/7", "operator:type": "Indian_oil", "personnel:count": "8", "source": "2C_Indore Field Survey 2019"}}, {"type": "node", "id": 6379360529, "lat": 22.6878523, "lon": 75.7664958, "tags": {"addr:city": "Indore", "addr:place": "Dhar Road", "addr:street": "N.H 59 Shriram Talawali, Near Choithram Netralaya", "amenity": "fuel", "brand": "Indian Oil Petrol Pump", "brand:wikidata": "Q1289348", "brand:wikipedia": "en:Indian Oil Corporation", "fuel:diesel": "yes", "fuel:petrol": "yes", "name": "Indian Oil Petrol Pump", "name:hi": "\u0915\u0936\u094d\u092f\u092a \u090f\u0902\u0921 \u0915\u0902\u092a\u0928\u0940", "opening_hours": "24/7", "operator:type": "HP", "personnel:count": "12", "phone": "9827064970", "source": "2C_Indore Field Survey 2019"}}, {"type": "node", "id": 6379360531, "lat": 22.7056563, "lon": 75.8255607, "tags": {"addr:city": "Indore", "addr:place": "Opposite Vedant Hospital", "addr:street": "Chandan Nagar Square", "amenity": "fuel", "compressed_air": "yes", "fuel:cng": "yes", "fuel:diesel": "yes", "fuel:nitrogen_filling": "yes", "fuel:petrol": "yes", "name": "Sai Filling Station", "name:hi": "\u0938\u093e\u0908 \u092b\u093f\u0932\u093f\u0902\u0917 \u0938\u094d\u091f\u0947\u0936\u0928", "opening_hours": "Mo-Su 6:00-23:00", "operator:type": "Bharat_petrolium", "personnel:count": "12", "source": "2C_Indore Field Survey 2019"}}, {"type": "node", "id": 9240182469, "lat": 22.5548717, "lon": 75.7628658, "tags": {"amenity": "fuel", "brand": "Indian Oil Petrol Pump", "brand:wikidata": "Q1289348", "brand:wikipedia": "en:Indian Oil Corporation", "name": "Indian Oil Petrol Pump"}}, {"type": "node", "id": 9240182470, "lat": 22.5197159, "lon": 75.7508377, "tags": {"amenity": "fuel", "brand": "Indian Oil Petrol Pump", "brand:wikidata": "Q1289348", "brand:wikipedia": "en:Indian Oil Corporation", "name": "Indian Oil Petrol Pump"}}, {"type": "node", "id": 9240182471, "lat": 22.5374735, "lon": 75.7305429, "tags": {"amenity": "fuel", "brand": "Indian Oil Petrol Pump", "brand:wikidata": "Q1289348", "brand:wikipedia": "en:Indian Oil Corporation", "name": "Indian Oil Petrol Pump"}}, {"type": "node", "id": 9240182472, "lat": 22.5293699, "lon": 75.7003274, "tags": {"amenity": "fuel", "brand": "Indian Oil Petrol Pump", "brand:wikidata": "Q1289348", "brand:wikipedia": "en:Indian Oil Corporation", "name": "Indian Oil Petrol Pump"}}, {"type": "node", "id": 9240182473, "lat": 22.5299565, "lon": 75.7063684, "tags": {"amenity": "fuel", "brand": "Indian Oil Petrol Pump", "brand:wikidata": "Q1289348", "brand:wikipedia": "en:Indian Oil Corporation", "name": "Indian Oil Petrol Pump"}}, {"type": "node", "id": 9240182474, "lat": 22.5952517, "lon": 75.7862523, "tags": {"amenity": "fuel", "brand": "Indian Oil Petrol Pump", "brand:wikidata": "Q1289348", "brand:wikipedia": "en:Indian Oil Corporation", "name": "Indian Oil Petrol Pump"}}, {"type": "node", "id": 9240212957, "lat": 22.6499584, "lon": 75.8211476, "tags": {"amenity": "fuel", "brand": "Indian Oil Petrol Pump", "brand:wikidata": "Q1289348", "brand:wikipedia": "en:Indian Oil Corporation", "name": "Indian Oil Petrol Pump"}}, {"type": "node", "id": 9240212958, "lat": 22.6382184, "lon": 75.8139674, "tags": {"amenity": "fuel", "brand": "Indian Oil Petrol Pump", "brand:wikidata": "Q1289348", "brand:wikipedia": "en:Indian Oil Corporation", "name": "Indian Oil Petrol Pump"}}, {"type": "node", "id": 9240212959, "lat": 22.6282856, "lon": 75.8057637, "tags": {"amenity": "fuel", "brand": "Indian Oil Petrol Pump", "brand:wikidata": "Q1289348", "brand:wikipedia": "en:Indian Oil Corporation", "name": "Indian Oil Petrol Pump"}}, {"type": "node", "id": 9240212960, "lat": 22.6159616, "lon": 75.7540813, "tags": {"amenity": "fuel", "brand": "Indian Oil Petrol Pump", "brand:wikidata": "Q1289348", "brand:wikipedia": "en:Indian Oil Corporation", "name": "Indian Oil Petrol Pump"}}, {"type": "node", "id": 9240212961, "lat": 22.6169722, "lon": 75.7352018, "tags": {"amenity": "fuel", "brand": "Indian Oil Petrol Pump", "brand:wikidata": "Q1289348", "brand:wikipedia": "en:Indian Oil Corporation", "name": "Indian Oil Petrol Pump"}}, {"type": "node", "id": 9240212962, "lat": 22.4838857, "lon": 75.6634816, "tags": {"amenity": "fuel", "brand": "Indian Oil Petrol Pump", "brand:wikidata": "Q1289348", "brand:wikipedia": "en:Indian Oil Corporation", "name": "Indian Oil Petrol Pump"}}, {"type": "node", "id": 9240212963, "lat": 22.4663577, "lon": 75.6505348, "tags": {"amenity": "fuel", "brand": "Indian Oil Petrol Pump", "brand:wikidata": "Q1289348", "brand:wikipedia": "en:Indian Oil Corporation", "name": "Indian Oil Petrol Pump"}}, {"type": "node", "id": 9240212964, "lat": 22.4557507, "lon": 75.6463015, "tags": {"amenity": "fuel", "brand": "Indian Oil Petrol Pump", "brand:wikidata": "Q1289348", "brand:wikipedia": "en:Indian Oil Corporation", "name": "Indian Oil Petrol Pump"}}, {"type": "node", "id": 9240212965, "lat": 22.419502, "lon": 75.595301, "tags": {"amenity": "fuel", "brand": "Indian Oil Petrol Pump", "brand:wikidata": "Q1289348", "brand:wikipedia": "en:Indian Oil Corporation", "name": "Indian Oil Petrol Pump"}}, {"type": "node", "id": 9240214276, "lat": 22.6799631, "lon": 75.7315168, "tags": {"amenity": "fuel", "brand": "Indian Oil Petrol Pump", "brand:wikidata": "Q1289348", "brand:wikipedia": "en:Indian Oil Corporation", "name": "Indian Oil Petrol Pump"}}, {"type": "node", "id": 9240214277, "lat": 22.6719257, "lon": 75.6111032, "tags": {"amenity": "fuel", "brand": "Indian Oil Petrol Pump", "brand:wikidata": "Q1289348", "brand:wikipedia": "en:Indian Oil Corporation", "name": "Indian Oil Petrol Pump"}}, {"type": "node", "id": 9240214278, "lat": 22.6749414, "lon": 75.5634109, "tags": {"amenity": "fuel", "brand": "Indian Oil Petrol Pump", "brand:wikidata": "Q1289348", "brand:wikipedia": "en:Indian Oil Corporation", "name": "Indian Oil Petrol Pump"}}, {"type": "node", "id": 9240214279, "lat": 22.6674921, "lon": 75.5354598, "tags": {"amenity": "fuel", "brand": "Indian Oil Petrol Pump", "brand:wikidata": "Q1289348", "brand:wikipedia": "en:Indian Oil Corporation", "name": "Indian Oil Petrol Pump"}}, {"type": "node", "id": 9240214280, "lat": 22.6469603, "lon": 75.5650577, "tags": {"amenity": "fuel", "brand": "Indian Oil Petrol Pump", "brand:wikidata": "Q1289348", "brand:wikipedia": "en:Indian Oil Corporation", "name": "Indian Oil Petrol Pump"}}, {"type": "node", "id": 9240214282, "lat": 22.6377846, "lon": 75.6159394, "tags": {"amenity": "fuel", "brand": "Indian Oil Petrol Pump", "brand:wikidata": "Q1289348", "brand:wikipedia": "en:Indian Oil Corporation", "name": "Indian Oil Petrol Pump"}}, {"type": "node", "id": 9240234862, "lat": 22.5891763, "lon": 75.7033516, "tags": {"amenity": "fuel", "brand": "Indian Oil Petrol Pump", "brand:wikidata": "Q1289348", "brand:wikipedia": "en:Indian Oil Corporation", "name": "Indian Oil Petrol Pump"}}]}