{"version": 0.6, "generator": "Overpass API 0.7.62.8 e802775f", "osm3s": {"timestamp_osm_base": "2025-11-09T10:47:15Z", "copyright": "The data included in this document is from www.openstreetmap.org. The data is made available under ODbL."}, "elements": [{"type": "node", "id": 1802109244, "lat": 22.707562, "lon": 75.8785267, "tags": {"addr:city": "Indore", "addr:postcode": "452001", "amenity": "fuel", "brand": "Hindustan Petroleum", "brand:wikidata": "Q1619375", "fuel:diesel": "yes", "name": "HP Petrol Pump", "official_name": "Hindustan Petroleum"}}, {"type": "node", "id": 1802110721, "lat": 22.6979276, "lon": 75.8776734, "tags": {"amenity": "fuel", "brand": "Hindustan Petroleum", "brand:wikidata": "Q1619375", "name": "HP", "official_name": "Hindustan Petroleum"}}, {"type": "node", "id": 4703228878, "lat": 22.7051042, "lon": 75.8439517, "tags": {"addr:city": "indore", "amenity": "fuel", "brand": "Indian Oil Petrol Pump", "brand:wikidata": "Q1289348", "brand:wikipedia": "en:Indian Oil Corporation", "name": "Indian Oil Petrol Pump", "operator": "mahunaka"}}, {"type": "node", "id": 6044535106, "lat": 22.6784417, "lon": 75.877844, "tags": {"addr:city": "Indore", "addr:postcode": "452001", "addr:street": "Khandwa Road", "amenity": "fuel", "brand": "Bharat Petroleum", "brand:wikidata": "Q854826", "brand:wikipedia": "en:Bharat Petroleum", "fuel:diesel": "yes", "fuel:gasoline": "yes", "name": "Bharat Petroleum", "name:en": "BPCL Petrol Pump", "payment:cash": "yes", "payment:coins": "yes", "payment:credit_cards": "yes", "payment:debit_cards": "yes", "payment:electronic_purses": "yes", "payment:mastercard": "yes", "payment:notes": "yes", "payment:visa": "yes", "self_service": "no", "wheelchair": "yes"}}, {"type": "node", "id": 6048523126, "lat": 22.6953882, "lon": 75.8657836, "tags": {"amenity": "fuel", "name": "Bharat Petroleum", "name:en": "BPCL Petrol Pump"}}, {"type": "node", "id": 6318428070, "lat": 22.7073265, "lon": 75.8570633, "tags": {"addr:city": "Indore", "addr:place": "Palsikar Colony", "addr:street": "Palsikar Main Road", "amenity": "fuel", "facility:air_filling": "yes", "facility:mechanic": "no", "fuel:diesel": "yes", "fuel:nitrogen_filling": "yes", "fuel:petrol": "yes", "name": "Sukhmani Palsikar Petrol Pump", "name:hi": "\u0938\u0941\u0916\u094d\u092e\u0928\u0940 \u092a\u0948\u091f\u094d\u0930\u094b\u0932 \u092a\u0902\u092a", "opening_hours": "Mo-Su 06:00-23:59", "operator:type": "Bharat_petrolium", "personnel:count": "35", "phone": "79300717766", "security_guard": "yes", "source": "2C_Indore Field Survey 2019"}}, {"type": "node", "id": 6319076852, "lat": 22.7050167, "lon": 75.844265, "tags": {"addr:city": "Indore", "amenity": "fuel", "brand": "Indian Oil", "brand:wikidata": "Q1289348", "brand:wikipedia": "en:Indian Oil Corporation", "facility:air_filling": "yes", "facility:mechanic": "yes", "fuel:cng": "yes", "fuel:diesel": "yes", "fuel:nitrogen_filling": "yes", "fuel:petrol": "yes", "name": "Indian oil", "name:hi": "\u0907\u0902\u0921\u093f\u092f\u0928 \u0911\u0907\u0932", "opening_hours": "24/7", "operator:type": "Indian_oil", "personnel:count": "12", "source": "2C_Indore Field Survey 2019"}}, {"type": "node", "id": 6372095207, "lat": 22.6699767, "lon": 75.9178555, "tags": {"addr:city": "Indore", "addr:place": "Devguradia", "addr:street": "AH 47", "amenity": "fuel", "fuel:diesel": "yes", "name": "Swaraj Biodiesel", "name:hi": "\u0938\u094d\u0935\u0930\u093e\u091c \u092c\u093f\u092f\u094b\u0921\u0940\u091c\u0932", "opening_hours": "24/7", "operator:type": "Swaraj Biodiesel", "personnel:count": "5", "source": "2C_Indore Field Survey 2019"}}, {"type": "node", "id": 6372394706, "lat": 22.6784988, "lon": 75.8778009, "tags": {"addr:city": "Indore", "addr:place": "Mirjapur", "addr:street": "State Highway 27, Tejaji Nagar", "amenity": "fuel", "compressed_air": "yes", "fuel:cng": "yes", "fuel:diesel": "yes", "fuel:nitrogen_filling": "yes", "fuel:petrol": "yes", "name": "H.S. Road Carrier Petrol Pump", "name:hi": "\u090f\u091a. \u090f\u0938. \u0930\u094b\u0921 \u0915\u0948\u0930\u0940\u0905\u0930 \u092a\u0947\u091f\u094d\u0930\u094b\u0932 \u092a\u092e\u094d\u092a", "opening_hours": "Mo-Su 06:00-23:00", "operator:type": "Bharat_petrolium", "personnel:count": "18", "source": "2C_Indore Field Survey 2019", "website": "bharatpetroleum.in"}}, {"type": "node", "id": 6372453910, "lat": 22.6806373, "lon": 75.8632954, "tags": {"addr:city": "Indore", "addr:place": "IDA, Scheme No. 94, Ambikapuri", "addr:street": "Ring Road", "amenity": "fuel", "compressed_air": "yes", "facility:mechanic": "no", "fuel:cng": "no", "fuel:diesel": "yes", "fuel:nitrogen_filling": "yes", "fuel:petrol": "yes", "name": "Prakash Auto Centre", "name:hi": "\u092a\u094d\u0930\u0915\u093e\u0936 \u0911\u091f\u094b \u0938\u0947\u0928\u094d\u091f\u0930", "opening_hours": "Mo-Su 06:00-22:30", "operator:type": "Bharat_petrolium", "personnel:count": "8", "phone": "9893169676", "source": "2C_Indore Field Survey 2019", "website": "https://www.bharatpetroleum.in/"}}, {"type": "node", "id": 6373462556, "lat": 22.6919144, "lon": 75.8820869, "tags": {"addr:city": "Indore", "addr:housenumber": "43, Chitawad Road,", "addr:street": "Radha Swami Nagar, Navlakha Road", "amenity": "fuel", "facility:air_filling": "yes", "facility:mechanic": "no", "fuel:diesel": "yes", "fuel:nitrogen_filling": "yes", "fuel:petrol": "yes", "name": "Shivom Fuels", "name:hi": "\u0936\u093f\u0935\u094b\u092e \u092b\u094d\u092f\u0942\u0932\u094d\u0938", "opening_hours": "Mo-Su 06:00-23:30", "operator:type": "Indian_oil", "personnel:count": "15", "phone": "07312404153", "security_guard": "yes", "source": "2C_Indore Field Survey 2019", "toilets": "yes"}}, {"type": "node", "id": 6373470224, "lat": 22.6909134, "lon": 75.8836439, "tags": {"addr:city": "Indore", "addr:place": "Anand Nagar, Navlakha Main Road", "amenity": "fuel", "facility:air_filling": "yes", "fuel:diesel": "yes", "fuel:nitrogen_filling": "yes", "fuel:petrol": "yes", "name": "Essar Fuel Station", "name:hi": "\u090f\u0938\u094d\u0938\u093e\u0930 \u092b\u094d\u092f\u0942\u0932 \u0938\u094d\u091f\u0947\u0936\u0928", "opening_hours": "Mo-Su 06:00-23:30", "operator:type": "Essar", "personnel:count": "10", "security_guard": "no", "source": "2C_Indore Field Survey 2019", "toilets": "yes"}}, {"type": "node", "id": 6373479093, "lat": 22.678473, "lon": 75.8779402, "tags": {"addr:city": "Indore", "addr:place": "Tejaji Nagar, Khandwa Road", "addr:street": "State Highway 27", "amenity": "fuel", "brand": "Bharat Petroleum", "brand:wikidata": "Q854826", "brand:wikipedia": "en:Bharat Petroleum", "compressed_air": "yes", "facility:mechanic": "yes", "fuel:cng": "no", "fuel:diesel": "yes", "fuel:nitrogen_filling": "yes", "fuel:petrol": "yes", "name": "Bharat Petroleum", "name:hi": "\u092d\u093e\u0930\u0924 \u092a\u0947\u091f\u094d\u0930\u094b\u0932\u093f\u092f\u092e", "opening_hours": "Mo-Su 06:00-23:30", "operator:type": "Bharat_petrolium", "personnel:count": "18", "security_guard": "yes", "source": "2C_Indore Field Survey 2019", "toilets": "yes"}}, {"type": "node", "id": 6373522134, "lat": 22.6819143, "lon": 75.8611737, "tags": {"addr:city": "Indore", "addr:place": "Sector A, Sarvanand Nagar, Pipliya Rao", "addr:street": "Scheme No 94, Rajiv Gandhi Circle", "amenity": "fuel", "compressed_air": "yes", "fuel:cng": "yes", "fuel:diesel": "yes", "fuel:nitrogen_filling": "yes", "fuel:petrol": "yes", "name": "Madhur Fuel Station", "name:hi": "\u092e\u0927\u0941\u0930 \u092b\u094d\u092f\u0942\u0932 \u0938\u094d\u091f\u0947\u0936\u0928", "opening_hours": "Mo-Su 06:00-23:30", "operator:type": "HP", "personnel:count": "10", "phone": "9425058866", "security_guard": "no", "source": "2C_Indore Field Survey 2019", "toilets": "yes"}}, {"type": "node", "id": 6377163701, "lat": 22.689488, "lon": 75.8879811, "tags": {"addr:city": "Indore", "addr:place": "Near Bus Stand,", "addr:street": "Teen Imli,", "amenity": "fuel", "compressed_air": "yes", "fuel:cng": "yes", "fuel:diesel": "yes", "fuel:petrol": "yes", "name": "Shakti Fuel Station", "name:hi": "\u0936\u0915\u094d\u0924\u0940 \u092b\u094d\u092f\u0942\u0932 \u0938\u094d\u091f\u0947\u0936\u0928", "opening_hours": "24/7", "operator:type": "HP", "personnel:count": "20", "phone": "07314053148", "source": "2C_Indore Field Survey 2019"}}, {"type": "node", "id": 6377164194, "lat": 22.6895128, "lon": 75.8885658, "tags": {"addr:city": "Indore", "addr:place": "Pawanpuri Colony, Eastern Ring Road,", "addr:street": "Scheme no. 94, Teen Imli, Indore.", "amenity": "fuel", "fuel:diesel": "yes", "fuel:petrol": "yes", "name": "Mahraja Agrasen Petroleum", "name:hi": "\u092e\u0939\u093e\u0930\u093e\u091c\u093e \u0905\u0917\u094d\u0930\u0938\u0947\u0928 \u092a\u0947\u091f\u094d\u0930\u094b\u0932\u093f\u092f\u092e", "opening_hours": "24/7", "operator:type": "Essar", "personnel:count": "10", "phone": "9425053901", "source": "2C_Indore Field Survey 2019"}}, {"type": "node", "id": 6379029031, "lat": 22.6954147, "lon": 75.865763, "tags": {"addr:city": "Indore", "addr:place": "2 ,Gurmeet Nagar", "amenity": "fuel", "facility:air_filling": "yes", "fuel:diesel": "yes", "fuel:nitrogen_filling": "yes", "fuel:petrol": "yes", "name": "RR Fuels", "name:hi": "\u0906\u0930 \u0906\u0930 \u092b\u094d\u092f\u0942\u0932\u094d\u0938", "opening_hours": "24/7", "operator:type": "Bharat_petrolium", "source": "2C_Indore Field Survey 2019"}}, {"type": "node", "id": 6379205239, "lat": 22.6839646, "lon": 75.9144142, "tags": {"addr:city": "Indore", "addr:place": "Palda", "addr:street": "Nemawar road, Udyoog Nagar", "amenity": "fuel", "facility:air_filling": "yes", "fuel:diesel": "yes", "name": "Mahesh Associats", "name:hi": "\u092e\u0939\u0947\u0936 \u090f\u0938\u094b\u0938\u093f\u090f\u091f\u094d\u0938", "opening_hours": "24/7", "operator:type": "Indian_oil", "personnel:count": "10", "phone": "9827031469", "source": "2C_Indore Field Survey 2019"}}, {"type": "node", "id": 6379205240, "lat": 22.68588, "lon": 75.9092644, "tags": {"addr:city": "Indore", "addr:place": "Palda", "addr:street": "Nemawar road, Udyoog Nagar", "amenity": "fuel", "fuel:diesel": "yes", "fuel:petrol": "yes", "name": "Kumudini Enterprises", "name:hi": "\u0915\u0941\u092e\u0941\u0926\u093f\u0928\u0940 \u0907\u0902\u091f\u0930\u092a\u094d\u0930\u093e\u0907\u091c\u0947\u091c", "opening_hours": "24/7", "operator:type": "Bharat_petrolium", "personnel:count": "10", "phone": "6262645656", "source": "2C_Indore Field Survey 2019"}}, {"type": "node", "id": 6379205242, "lat": 22.6867412, "lon": 75.901671, "tags": {"addr:city": "Indore", "addr:place": "Palda", "addr:street": "Nemawar Road, Dinesh Nagar", "amenity": "fuel", "facility:air_filling": "yes", "fuel:diesel": "yes", "fuel:petrol": "yes", "name": "Dharmawat Fuel Pump", "name:hi": "\u0927\u0930\u094d\u092e\u093e\u0935\u0924 \u092b\u094d\u092f\u0942\u0932 \u092a\u0902\u092a", "opening_hours": "24/7", "operator:type": "Reliance", "personnel:count": "15", "phone": "9826017629", "source": "2C_Indore Field Survey 2019"}}, {"type": "node", "id": 6379266761, "lat": 22.6871371, "lon": 75.8988708, "tags": {"addr:city": "Indore", "addr:place": "Udhyog Nagar,", "addr:street": "Nemawar Road, Palda,", "amenity": "fuel", "facility:air_filling": "yes", "fuel:diesel": "yes", "fuel:petrol": "yes", "name": "Surya Fuel Station", "name:hi": "\u0938\u0941\u0930\u094d\u092f\u093e \u092b\u094d\u092f\u0942\u0932 \u0938\u094d\u091f\u0947\u0936\u0928", "opening_hours": "24/7", "operator:type": "Indian_oil", "personnel:count": "5", "phone": "9977221899", "source": "2C_Indore Field Survey 2019"}}, {"type": "node", "id": 6379279020, "lat": 22.6875974, "lon": 75.9015798, "tags": {"addr:city": "Indore", "addr:place": "Udhyog Nagar,", "addr:street": "Nemawar Road, Palda,", "amenity": "fuel", "fuel:diesel": "yes", "fuel:petrol": "yes", "name": "Singh Fuels", "name:hi": "\u0938\u093f\u0902\u0939 \u092b\u094d\u092f\u0942\u0932\u094d\u0938", "opening_hours": "24/7", "operator:type": "Indian_oil", "personnel:count": "8", "phone": "07312404085", "source": "2C_Indore Field Survey 2019"}}, {"type": "node", "id": 6379327460, "lat": 22.6851425, "lon": 75.9113216, "tags": {"addr:city": "Indore", "addr:place": "Udhyog Nagar,", "addr:street": "Nemawar Road, Palda,", "amenity": "fuel", "compressed_air": "yes", "fuel:cng": "yes", "fuel:diesel": "yes", "fuel:petrol": "yes", "name": "Poss Fuel Station", "name:hi": "\u092a\u094b\u0938\u094d\u0938 \u092b\u094d\u092f\u0942\u0932 \u0938\u094d\u091f\u0947\u0936\u0928", "opening_hours": "24/7", "operator:type": "Indian_oil", "personnel:count": "15", "phone": "9893027029", "source": "2C_Indore Field Survey 2019"}}, {"type": "node", "id": 6379327461, "lat": 22.6843209, "lon": 75.9110212, "tags": {"addr:city": "Indore", "addr:place": "Nemawar Road,", "addr:street": "Palda,", "amenity": "fuel", "facility:air_filling": "yes", "fuel:diesel": "yes", "fuel:petrol": "yes", "name": "Patel Malhar Fuel Station", "name:hi": "\u092a\u091f\u0947\u0932 \u092e\u0932\u094d\u0939\u093e\u0930 \u092b\u094d\u092f\u0942\u0932 \u0938\u094d\u091f\u0947\u0936\u0928", "opening_hours": "24/7", "operator:type": "Bharat_petrolium", "personnel:count": "6", "phone": "8085988999", "source": "2C_Indore Field Survey 2019"}}, {"type": "node", "id": 6589063217, "lat": 22.685711, "lon": 75.9092652}, {"type": "node", "id": 6589063218, "lat": 22.6859041, "lon": 75.909386}, {"type": "node", "id": 6589063219, "lat": 22.6858439, "lon": 75.9094988}, {"type": "node", "id": 6589063220, "lat": 22.6856509, "lon": 75.9093781}, {"type": "node", "id": 6592997678, "lat": 22.6982839, "lon": 75.8643869}, {"type": "node", "id": 6592997679, "lat": 22.6981904, "lon": 75.8644332}, {"type": "node", "id": 6592997680, "lat": 22.6981118, "lon": 75.8642602}, {"type": "node", "id": 6592997681, "lat": 22.6981953, "lon": 75.8642133}, {"type": "node", "id": 6817004957, "lat": 22.6953674, "lon": 75.925309}, {"type": "node", "id": 6817004958, "lat": 22.6952375, "lon": 75.925832}, {"type": "node", "id": 6817004959, "lat": 22.694848, "lon": 75.9257184}, {"type": "node", "id": 6817004960, "lat": 22.6949779, "lon": 75.9251954}, {"type": "node", "id": 9240175694, "lat": 22.63994, "lon": 75.8881966, "tags": {"amenity": "fuel", "brand": "Indian Oil Petrol Pump", "brand:wikidata": "Q1289348", "brand:wikipedia": "en:Indian Oil Corporation", "name": "Indian Oil Petrol Pump"}}, {"type": "node", "id": 9240175695, "lat": 22.620102, "lon": 75.8862184, "tags": {"amenity": "fuel", "brand": "Indian Oil Petrol Pump", "brand:wikidata": "Q1289348", "brand:wikipedia": "en:Indian Oil Corporation", "name": "Indian Oil Petrol Pump"}}, {"type": "node", "id": 9240175696, "lat": 22.6180974, "lon": 75.8874999, "tags": {"amenity": "fuel", "brand": "Indian Oil Petrol Pump", "brand:wikidata": "Q1289348", "brand:wikipedia": "en:Indian Oil Corporation", "name": "Indian Oil Petrol Pump"}}, {"type": "node", "id": 9240175697, "lat": 22.5704768, "lon": 75.8942693, "tags": {"amenity": "fuel", "brand": "Indian Oil Petrol Pump", "brand:wikidata": "Q1289348", "brand:wikipedia": "en:Indian Oil Corporation", "name": "Indian Oil Petrol Pump"}}, {"type": "node", "id": 9240175698, "lat": 22.5361984, "lon": 75.9128926, "tags": {"amenity": "fuel", "brand": "Indian Oil Petrol Pump", "brand:wikidata": "Q1289348", "brand:wikipedia": "en:Indian Oil Corporation", "name": "Indian Oil Petrol Pump"}}, {"type": "node", "id": 9240175699, "lat": 22.4476042, "lon": 75.949536, "tags": {"amenity": "fuel", "brand": "Indian Oil Petrol Pump", "brand:wikidata": "Q1289348", "brand:wikipedia": "en:Indian Oil Corporation", "name": "Indian Oil Petrol Pump"}}, {"type": "node", "id": 9240175700, "lat": 22.4191611, "lon": 75.9805256, "tags": {"amenity": "fuel", "brand": "Indian Oil Petrol Pump", "brand:wikidata": "Q1289348", "brand:wikipedia": "en:Indian Oil Corporation", "name": "Indian Oil Petrol Pump"}}, {"type": "node", "id": 9240212954, "lat": 22.6826152, "lon": 75.8583749, "tags": {"amenity": "fuel", "brand": "Indian Oil Petrol Pump", "brand:wikidata": "Q1289348", "brand:wikipedia": "en:Indian Oil Corporation", "name": "Indian Oil Petrol Pump"}}, {"type": "node", "id": 9240212955, "lat": 22.6743546, "lon": 75.8421401, "tags": {"amenity": "fuel", "brand": "Indian Oil Petrol Pump", "brand:wikidata": "Q1289348", "brand:wikipedia": "en:Indian Oil Corporation", "name": "Indian Oil Petrol Pump"}}, {"type": "node", "id": 9240212956, "lat": 22.6737218, "lon": 75.8417972, "tags": {"amenity": "fuel", "brand": "Indian Oil Petrol Pump", "brand:wikidata": "Q1289348", "brand:wikipedia": "en:Indian Oil Corporation", "name": "Indian Oil Petrol Pump"}}, {"type": "node", "id": 9240214275, "lat": 22.6957327, "lon": 75.8655868, "tags": {"amenity": "fuel", "brand": "Indian Oil Petrol Pump", "brand:wikidata": "Q1289348", "brand:wikipedia": "en:Indian Oil Corporation", "name": "Indian Oil Petrol Pump"}}, {"type": "node", "id": 9515553150, "lat": 22.6699108, "lon": 75.8817213, "tags": {"amenity": "fuel", "brand": "Bharat Petroleum", "brand:wikidata": "Q854826", "brand:wikipedia": "en:Bharat Petroleum", "name": "S.  S. Auto Energies"}}, {"type": "node", "id": 9515889949, "lat": 22.6945308, "lon": 75.9000854}, {"type": "node", "id": 9515889950, "lat": 22.6942601, "lon": 75.9006067}, {"type": "node", "id": 9515889951, "lat": 22.6946586, "lon": 75.9009166}, {"type": "node", "id": 9515889952, "lat": 22.6949641, "lon": 75.9004658}, {"type": "node", "id": 10239608157, "lat": 22.6702853, "lon": 75.8814724}, {"type": "node", "id": 10239608158, "lat": 22.6703189, "lon": 75.8821021}, {"type": "node", "id": 10239608159, "lat": 22.6699577, "lon": 75.8822129}, {"type": "node", "id": 10239608160, "lat": 22.6699451, "lon": 75.8816059}, {"type": "way", "id": 701612899, "nodes": [6589063220, 6589063219, 6589063218, 6589063217, 6589063220], "tags": {"amenity": "fuel"}}, {"type": "way", "id": 702057842, "nodes": [6592997681, 6592997678, 6592997679, 6592997680, 6592997681], "tags": {"amenity": "fuel", "brand": "Indian Oil Petrol Pump", "brand:wikidata": "Q1289348", "brand:wikipedia": "en:Indian Oil Corporation", "name": "Indian Oil Petrol Pump"}}, {"type": "way", "id": 727418143, "nodes": [6817004960, 6817004957, 6817004958, 6817004959, 6817004960], "tags": {"amenity": "fuel", "name": "Sampat Fuels"}}, {"type": "way", "id": 1032822228, "nodes": [9515889949, 9515889950, 9515889951, 9515889952, 9515889949], "tags": {"amenity": "fuel", "brand": "Bharat Petroleum", "brand:wikidata": "Q854826", "brand:wikipedia": "en:Bharat Petroleum", "name": "Bharat Petroleum"}}, {"type": "way", "id": 1119527701, "nodes": [10239608157, 10239608158, 10239608159, 10239608160, 10239608157], "tags": {"amenity": "fuel", "brand": "Bharat Petroleum", "brand:wikidata": "Q854826", "name": "Bharat Petroleum"}}]}